{
  "type": "FeatureCollection",
  "features": [
    {
      "type": "Feature",
      "geometry": {
        "type": "Point",
        "coordinates": [
          -95.341341,
          29.72116
        ]
      },
      "properties": {
        "name": "Houston, Texas, USA"
      }
    },
    {
      "type": "Feature",
      "geometry": {
        "type": "Point",
        "coordinates": [
          19.84444,
          45.24953
        ]
      },
      "properties": {
        "name": "Novi Sad, Serbia"
      }
    },
    {
      "type": "Feature",
      "geometry": {
        "type": "Point",
        "coordinates": [
          -74.059329,
          4.651426
        ]
      },
      "properties": {
        "name": "Bogotá DC, Bogotá DC, Colombia"
      }
    },
    {
      "type": "Feature",
      "geometry": {
        "type": "Point",
        "coordinates": [
          -76.3090185,
          36.887132
        ]
      },
      "properties": {
        "name": "Norfolk, VA, USA"
      }
    },
    {
      "type": "Feature",
      "geometry": {
        "type": "Point",
        "coordinates": [
          -89.9411738,
          35.1218113
        ]
      },
      "properties": {
        "name": "Memphis, TN, USA"
      }
    }
  ]
}
